,City,Lat,Lng,Max Temp,Humidity,Cloudiness,Wind Speed,Country,Date
0,Ancud,-41.8697,-73.8203,62.33,80,61,2.37,CL,1643067427
1,Aguazul,5.1728,-72.5471,82.13,50,79,1.87,CO,1643067429
2,Hobart,-42.8794,147.3294,69.53,84,75,0.45,AU,1643067431
3,Ushuaia,-54.8,-68.3,40.73,87,100,14.4,AR,1643067233
4,Rikitea,-23.1203,-134.9692,76.73,71,100,7.86,PF,1643067433
5,Clyde River,70.4692,-68.5914,-2.47,78,100,11.32,CA,1643067435
6,Valparaíso,-33.0393,-71.6273,74.93,47,0,6.17,CL,1643067204
7,Upernavik,72.7868,-56.1549,-13.27,86,86,4.02,GL,1643067438
8,Hamilton,39.1834,-84.5333,38.93,93,90,1.34,US,1643067432
9,Rome,43.2128,-75.4557,20.93,65,90,3.6,US,1643067441
10,Hoopstad,-27.8327,25.9083,69.53,40,2,1.77,ZA,1643067443
11,Mar del Plata,-38.0023,-57.5575,74.93,79,0,3.58,AR,1643067385
12,Mae Hong Son,19.3003,97.9685,55.13,73,2,0.61,TH,1643067446
13,Omsukchan,62.5333,155.8,-22.27,96,100,1.55,RU,1643067447
14,Butaritari,3.0707,172.7902,80.33,79,97,7.12,KI,1643067448
15,Makakilo City,21.3469,-158.0858,78.53,51,0,4.63,US,1643067450
16,Bredasdorp,-34.5322,20.0403,67.73,89,20,3.03,ZA,1643067451
17,Imeni Poliny Osipenko,52.4201,136.4853,-20.47,100,97,1.62,RU,1643067453
18,Fairbanks,64.8378,-147.7164,40.73,69,40,1.54,US,1643067454
19,Kristinestad,62.2743,21.376,31.73,70,46,9.37,FI,1643067456
20,Tiksi,71.6872,128.8694,-7.87,97,100,3.94,RU,1643067225
21,Kapaa,22.0752,-159.319,78.53,61,40,1.34,US,1643067459
22,Champerico,14.3,-91.9167,89.33,65,4,2.22,GT,1643067460
23,Vestmannaeyjar,63.4427,-20.2734,40.73,95,100,16.2,IS,1643067462
24,Bengkulu,-3.8004,102.2655,74.93,86,64,1.67,ID,1643067463
25,Vaini,-21.2,-175.2,85.73,84,20,4.63,TO,1643067465
26,Pacific Grove,36.6177,-121.9166,65.93,74,0,1.34,US,1643067207
27,Mahébourg,-20.4081,57.7,76.73,65,20,4.63,MU,1643067468
28,Hong Kong,22.2855,114.1577,65.93,89,100,2.24,HK,1643067469
29,Albany,42.6001,-73.9662,24.53,62,83,0.84,US,1643066714
30,Bandarbeyla,9.4942,50.8122,73.13,68,16,9.79,SO,1643067475
31,Carnarvon,-24.8667,113.6333,78.53,69,0,5.66,AU,1643067477
32,Cidreira,-30.1811,-50.2056,74.93,91,12,6.1,BR,1643067478
33,Prince Rupert,54.3161,-130.3201,38.93,96,90,0.0,CA,1643067480
34,Punta Arenas,-53.15,-70.9167,51.53,58,0,17.49,CL,1643067481
35,Mataura,-46.1927,168.8643,56.93,50,71,2.22,NZ,1643067483
36,Puerto Ayora,-0.7393,-90.3518,73.13,89,86,4.87,EC,1643067485
37,Arraial do Cabo,-22.9661,-42.0278,76.73,83,0,7.2,BR,1643067486
38,Plainview,40.7765,-73.4673,31.73,74,1,0.89,US,1643067488
39,Dikson,73.5069,80.5464,8.33,83,100,15.7,RU,1643067489
40,Akdepe,42.0551,59.3788,17.33,81,5,4.03,TM,1643067491
41,Tasiilaq,65.6145,-37.6368,26.33,89,100,3.92,GL,1643067492
42,Hithadhoo,-0.6,73.0833,80.33,75,91,7.76,MV,1643067494
43,Chokurdakh,70.6333,147.9167,-22.27,99,99,2.45,RU,1643067223
44,Bethel,41.3712,-73.414,29.93,73,88,2.05,US,1643067497
45,Laas,46.6166,10.7002,37.13,67,5,2.52,IT,1643067498
46,Torbay,47.6666,-52.7314,31.73,96,100,16.98,CA,1643067500
47,Busselton,-33.65,115.3333,64.13,63,34,6.95,AU,1643067501
48,The Valley,18.217,-63.0578,78.53,73,75,4.63,AI,1643067503
49,Jamestown,42.097,-79.2353,20.93,68,100,1.34,US,1643067504
50,La Sarre,48.8002,-79.1996,1.13,96,100,3.0,CA,1643067506
51,Starosubkhangulovo,53.1031,57.4423,1.13,97,99,0.38,RU,1643067507
52,Merauke,-8.4667,140.3333,80.33,84,100,3.92,ID,1643067509
53,Longyearbyen,78.2186,15.6401,22.73,74,40,9.77,SJ,1643067510
54,Cabo San Lucas,22.8909,-109.9124,73.13,51,0,1.34,MX,1643067512
55,Avera,33.194,-82.5271,53.33,63,46,3.07,US,1643067513
56,New Norfolk,-42.7826,147.0587,69.53,51,74,1.19,AU,1643067515
57,Port Alfred,-33.5906,26.891,69.53,85,51,6.53,ZA,1643067517
58,Finschhafen,-6.6024,147.8681,83.93,71,98,1.11,PG,1643067518
59,Vadlapūdi,14.3167,79.8,71.33,85,0,0.73,IN,1643067520
60,Aykhal,66.0,111.5,-16.87,100,100,2.0,RU,1643067521
61,Ciudad Guayana,8.3533,-62.6528,78.53,66,100,3.64,VE,1643067523
62,Puerto Carreño,6.189,-67.4859,89.33,51,40,3.6,CO,1643067525
63,Muzhi,65.3667,64.6667,-6.07,99,39,3.43,RU,1643067526
64,Chui,-33.6971,-53.4616,73.13,89,66,3.82,UY,1643067528
65,Thompson,55.7435,-97.8558,-18.67,69,0,3.6,CA,1643067529
66,Souillac,-20.5167,57.5167,76.73,65,20,4.63,MU,1643067531
67,Lorengau,-2.0226,147.2712,83.93,72,70,4.0,PG,1643067533
68,Vila,42.0304,-8.1588,35.33,86,0,1.61,PT,1643067534
69,Chapais,49.7834,-74.8492,-6.07,98,100,1.15,CA,1643067535
70,Staraya Russa,57.9944,31.3608,22.73,93,100,5.1,RU,1643067537
71,Changde,29.0464,111.6783,35.33,97,100,1.31,CN,1643067538
72,Garh Maharaja,30.8339,71.9053,49.73,67,0,2.15,PK,1643067540
73,eMkhomazi,-30.2067,30.7978,73.13,89,5,4.96,ZA,1643067541
74,Kuching,1.55,110.3333,74.93,94,40,1.54,MY,1643067543
75,Sechura,-5.5569,-80.8222,74.93,68,99,7.03,PE,1643067544
76,Roald,62.5833,6.1333,38.93,65,100,7.72,NO,1643067546
77,Villa Carlos Paz,-31.4241,-64.4978,74.93,79,91,0.45,AR,1643067547
78,Amazar,53.858,120.875,-15.07,98,19,1.33,RU,1643067549
79,Nagua,19.3832,-69.8474,78.53,78,20,2.06,DO,1643067550
80,Saint George,37.1041,-113.5841,65.93,25,1,0.45,US,1643067395
81,Lyngseidet,69.5763,20.2189,29.93,92,100,9.76,NO,1643067553
82,Alice Springs,-23.7,133.8833,80.33,61,46,4.12,AU,1643067285
83,Kjøllefjord,70.9457,27.3465,28.13,86,100,16.55,NO,1643067556
84,São Filipe,14.8961,-24.4956,74.93,65,43,2.14,CV,1643067558
85,Nanortalik,60.1432,-45.2371,26.33,74,100,9.21,GL,1643067559
86,Avarua,-21.2078,-159.775,83.93,79,20,4.63,CK,1643067506
87,Aranos,-24.1333,19.1167,73.13,37,41,3.4,NA,1643067562
88,Muros,42.7762,-9.0603,46.13,94,1,2.39,ES,1643067564
89,Hilo,19.7297,-155.09,80.33,62,0,4.12,US,1643067565
90,Hurghada,27.2574,33.8129,55.13,35,0,3.6,EG,1643067567
91,Tateyama,34.9833,139.8667,42.53,60,92,3.23,JP,1643067569
92,Alofi,-19.0595,-169.9187,83.93,74,75,2.57,NU,1643067570
93,Ciudad Bolivar,8.1222,-63.5497,82.13,53,100,5.01,VE,1643067572
94,Tuktoyaktuk,69.4541,-133.0374,11.93,85,75,6.17,CA,1643067573
95,Qaanaaq,77.484,-69.3632,-16.87,70,42,3.55,GL,1643067575
96,Yerbogachën,61.2767,108.0108,-13.27,100,99,1.32,RU,1643067576
97,Cayenne,4.9333,-52.3333,74.93,89,0,1.54,GF,1643067578
98,Garoowe,8.4054,48.4845,62.33,75,17,3.2,SO,1643067579
99,Flinders,-34.5833,150.8552,78.53,73,100,1.79,AU,1643067581
100,Yellowknife,62.456,-114.3525,-13.27,90,20,3.6,CA,1643067471
101,Canary Islands,28.0,-15.5,56.93,88,75,5.66,ES,1643067583
102,Bambous Virieux,-20.3428,57.7575,76.73,65,20,4.63,MU,1643067585
103,Aklavik,68.2191,-135.0107,20.93,85,90,6.17,CA,1643067587
104,Port Blair,11.6667,92.75,69.53,94,20,1.03,IN,1643067588
105,Baruun-Urt,46.6806,113.2792,-6.07,97,88,1.69,MN,1643067589
106,Săcelu,45.1,23.5333,19.13,54,5,1.8,RO,1643067591
107,Hasaki,35.7333,140.8333,33.53,55,28,4.67,JP,1643067593
108,Bodden Town,19.2833,-81.25,76.73,80,20,0.89,KY,1643067594
109,Hermanus,-34.4187,19.2345,69.53,93,17,3.86,ZA,1643067596
110,Recodo,6.9519,121.9636,78.53,94,100,0.51,PH,1643067597
111,Labuhan,-6.8844,112.2051,78.53,84,66,4.34,ID,1643067599
112,Yaan,7.3833,8.5667,78.53,15,2,3.03,NG,1643067600
113,Vila Franca do Campo,37.7167,-25.4333,56.93,81,86,2.72,PT,1643067602
114,São João da Barra,-21.6403,-41.0511,74.93,87,22,5.89,BR,1643067604
115,Adrar,20.5022,-10.0711,67.73,18,100,3.35,MR,1643067606
116,Maniwaki,46.3834,-75.966,6.53,85,100,3.09,CA,1643067455
117,Konëvo,62.1215,39.3192,24.53,92,100,5.58,RU,1643067608
118,East London,-33.0153,27.9116,69.53,83,5,6.57,ZA,1643067463
119,Hofn,64.2539,-15.2082,31.73,81,100,1.5,IS,1643067611
120,Cape Town,-33.9258,18.4232,67.73,85,40,7.2,ZA,1643067536
121,Severo-Kuril'sk,50.6789,156.125,22.73,73,96,3.49,RU,1643067614
122,Winnemucca,40.973,-117.7357,51.53,37,0,2.57,US,1643067615
123,Saint-Philippe,-21.3585,55.7679,74.93,66,72,6.37,RE,1643067617
124,Lemoore,36.3008,-119.7829,64.13,47,1,1.54,US,1643067619
125,Lavrentiya,65.5833,-171.0,-2.47,94,100,3.14,RU,1643067620
126,Morón,-34.6534,-58.6198,80.33,72,100,0.45,AR,1643067324
127,Vardø,70.3705,31.1107,26.33,74,70,12.52,NO,1643067623
128,Călmăţuiu,43.9667,24.8667,15.53,62,89,3.77,RO,1643067625
129,Kalmunai,7.4167,81.8167,71.33,78,93,0.92,LK,1643067626
130,Barrow,71.2906,-156.7887,10.13,85,75,8.75,US,1643067628
131,Kobryn,52.2138,24.3564,24.53,96,98,4.0,BY,1643067630
132,Saskylakh,71.9167,114.0833,-0.67,92,100,5.32,RU,1643067631
133,San Fernando del Valle de Catamarca,-28.4696,-65.7852,78.53,80,75,2.58,AR,1643067551
134,Chanika,-5.4167,38.0167,65.93,84,85,1.08,TZ,1643067634
135,Bluff,-46.6,168.3333,58.73,75,99,6.64,NZ,1643067636
136,Araouane,18.9048,-3.5265,64.13,12,67,4.68,ML,1643067637
137,Cherskiy,68.75,161.3,-33.07,100,100,2.56,RU,1643067639
138,Viesca,25.35,-102.8,64.13,32,75,2.6,MX,1643067641
139,Airai,-8.9266,125.4092,67.73,68,64,1.28,TL,1643067642
140,Korla,41.7597,86.1469,22.73,65,100,1.0,CN,1643067644
141,Komatipoort,-25.4332,31.9548,71.33,95,11,2.14,ZA,1643067645
142,Tocopilla,-22.092,-70.1979,67.73,81,31,2.61,CL,1643067647
143,São Felipe,-14.8167,-41.3833,69.53,79,99,1.65,BR,1643067648
144,Esperance,-33.8667,121.9,65.93,78,46,5.52,AU,1643067650
145,Plettenberg Bay,-34.0527,23.3716,65.93,87,38,2.87,ZA,1643067652
146,Pangody,65.85,74.4859,-0.67,98,90,5.12,RU,1643067653
147,Port Elizabeth,-33.918,25.5701,71.33,94,59,9.26,ZA,1643067459
148,Sept-Îles,50.2001,-66.3821,-11.47,76,40,2.57,CA,1643067656
149,Port-Gentil,-0.7193,8.7815,78.53,84,21,4.56,GA,1643067657
150,Grand Gaube,-20.0064,57.6608,76.73,69,46,0.89,MU,1643067659
151,Nikolskoye,59.7035,30.7861,31.73,94,100,4.93,RU,1643067660
152,Pisco,-13.7,-76.2167,73.13,68,0,9.77,PE,1643067662
153,Castro,-24.7911,-50.0119,69.53,60,48,2.97,BR,1643067664
154,Brainerd,46.358,-94.2008,4.73,51,1,4.12,US,1643067449
155,Grindavik,63.8424,-22.4338,38.93,100,100,13.38,IS,1643067666
156,Oussouye,12.485,-16.5469,76.73,47,72,2.41,SN,1643067668
157,Waingapu,-9.6567,120.2641,82.13,77,54,6.18,ID,1643067669
158,Zorritos,-3.6805,-80.6782,78.53,76,98,5.86,PE,1643067671
159,Iqaluit,63.7506,-68.5145,-22.27,76,75,2.06,CA,1643067672
160,Saint Anthony,45.0205,-93.218,8.33,62,1,1.79,US,1643067674
161,Sabzawār,36.2126,57.6819,33.53,32,8,0.11,IR,1643067675
162,Boende,-0.2167,20.8667,74.93,74,100,1.08,CD,1643067677
163,Nhulunbuy,-12.2333,136.7667,76.73,94,75,3.09,AU,1643067679
164,Zhigansk,66.7697,123.3711,-27.67,100,96,1.76,RU,1643067681
165,Puerto Escondido,15.85,-97.0667,80.33,69,0,3.44,MX,1643067682
166,Kenai,60.5544,-151.2583,38.93,91,100,4.12,US,1643067565
167,Barra de Tecoanapa,16.5167,-98.75,80.33,64,1,3.78,MX,1643067685
168,Codrington,-38.2667,141.9667,85.73,35,63,3.69,AU,1643067687
169,Saint Paul Harbor,57.79,-152.4072,40.73,75,75,1.54,US,1643067688
170,Caravelas,-17.7125,-39.2481,73.13,90,47,2.05,BR,1643067690
171,Augusto Corrêa,-1.0217,-46.635,74.93,85,100,1.48,BR,1643067691
172,Atuona,-9.8,-139.0333,78.53,69,10,7.5,PF,1643067693
173,Gazojak,41.1875,61.4036,24.53,83,4,4.37,TM,1643067695
174,Mikkeli,61.6886,27.2723,31.73,100,40,3.09,FI,1643067696
175,Eilat,29.5581,34.9482,46.13,71,0,6.17,IL,1643067698
176,George Town,5.4112,100.3354,80.33,93,40,0.0,MY,1643067622
177,Henties Bay,-22.116,14.2845,73.13,67,16,0.74,NA,1643067700
178,Atar,20.5169,-13.0499,73.13,15,100,2.28,MR,1643067702
179,Laguna,38.421,-121.4238,64.13,53,0,0.89,US,1643067703
180,Bograd,54.2344,90.8328,-13.27,99,100,1.39,RU,1643067705
181,Ostrovnoy,68.0531,39.5131,22.73,89,93,5.18,RU,1643067706
182,San Cristobal,7.7669,-72.225,74.93,75,46,0.63,VE,1643067708
183,Ashtian,34.5217,50.0019,29.93,67,0,2.56,IR,1643067710
184,Kelheim,48.9167,11.8667,31.73,90,14,0.61,DE,1643067711
185,Llandrindod Wells,52.2416,-3.3787,35.33,93,67,0.53,GB,1643067713
186,Chunoyar,57.4467,97.3217,2.93,98,100,1.31,RU,1643067714
187,Zhezkazgan,47.8043,67.7144,1.13,96,15,3.02,KZ,1643067716
188,Ilulissat,69.2167,-51.1,22.73,50,100,6.17,GL,1643067718
189,Yangi Marg`ilon,40.4272,71.7189,28.13,80,100,3.09,UZ,1643067720
190,Ayan,56.45,138.1667,1.13,81,15,2.97,RU,1643067721
191,Urengoy,65.9667,78.3667,-7.87,100,92,4.25,RU,1643067723
192,Klaksvík,62.2266,-6.589,40.73,72,100,6.61,FO,1643067724
193,Yumen,40.2833,97.2,17.33,45,85,4.54,CN,1643067726
194,Huarmey,-10.0681,-78.1522,73.13,82,65,4.8,PE,1643067728
195,Yenagoa,4.9247,6.2642,76.73,87,21,1.76,NG,1643067730
196,Sabang,5.8933,95.3214,78.53,76,73,1.83,ID,1643067731
197,Ribeira Grande,38.5167,-28.7,58.73,67,99,2.8,PT,1643067733
198,Altagracia de Orituco,9.8601,-66.3814,69.53,80,33,3.05,VE,1643067734
199,Micheweni,-4.9667,39.8333,80.33,71,99,7.68,TZ,1643067736
200,Aloleng,16.1307,119.7824,78.53,81,87,2.51,PH,1643067737
201,Nizhniy Kuranakh,58.8353,125.4869,-2.47,99,98,1.28,RU,1643067739
202,Byron Bay,-28.65,153.6167,78.53,71,84,2.68,AU,1643067375
203,Fomboni,-12.28,43.7425,82.13,78,95,11.54,KM,1643067742
204,Whitehorse,60.7161,-135.0538,33.53,64,75,7.72,CA,1643067593
205,Muroto-misakicho,33.2833,134.15,44.33,67,90,4.8,JP,1643067745
206,Liwale,-9.7667,37.9333,67.73,98,100,2.35,TZ,1643067746
207,Homer,59.6425,-151.5483,40.73,80,40,4.51,US,1643067748
208,Pāsighāt,28.0667,95.3333,51.53,93,32,1.01,IN,1643067749
209,Bereket,39.2446,55.5154,37.13,60,0,4.48,TM,1643067751
210,Acapulco de Juárez,16.8634,-99.8901,82.13,69,75,3.6,MX,1643067677
211,Kostomuksha,64.571,30.5767,28.13,91,78,5.72,RU,1643067754
212,Ahipara,-35.1667,173.1667,69.53,96,99,4.08,NZ,1643067755
213,Verāval,20.9,70.3667,58.73,49,0,4.25,IN,1643067757
214,Ponta do Sol,32.6667,-17.1,62.33,56,71,4.23,PT,1643067758
215,Oliveira dos Brejinhos,-12.3169,-42.8961,73.13,70,99,1.04,BR,1643067760
216,Beira,-19.8436,34.8389,78.53,90,100,11.1,MZ,1643067762
217,Khovd,48.0056,91.6419,-6.07,71,16,2.72,MN,1643067763
218,San Patricio,28.017,-97.5169,53.33,83,100,4.0,US,1643067765
219,Vao,-22.6667,167.4833,76.73,68,57,2.89,NC,1643067766
220,Bilibino,68.0546,166.4372,-45.67,100,94,0.81,RU,1643067768
221,Bubaque,11.2833,-15.8333,78.53,62,84,5.65,GW,1643067769
222,Mogadishu,2.0371,45.3438,74.93,76,27,9.48,SO,1643067771
223,Hearst,49.6835,-83.6665,-15.07,98,100,1.86,CA,1643067773
224,Hirara,24.8,125.2833,67.73,77,75,3.6,JP,1643067774
225,Cockburn Town,21.4612,-71.1419,76.73,70,0,2.52,TC,1643067776
226,Muisne,0.6,-80.0333,76.73,88,99,3.89,EC,1643067777
227,Vila Velha,-20.3297,-40.2925,78.53,85,20,2.57,BR,1643067778
228,Norman Wells,65.282,-126.8329,11.93,85,75,2.57,CA,1643067780
229,Port Hedland,-20.3167,118.5667,85.73,79,32,4.12,AU,1643067781
230,Daru,-9.0763,143.2092,76.73,91,100,3.89,PG,1643067783
231,Porto Velho,-8.7619,-63.9039,76.73,94,40,1.54,BR,1643067784
232,Kathmandu,27.7167,85.3167,42.53,93,20,1.03,NP,1643067542
233,San Andrés,12.5847,-81.7006,82.13,69,40,5.14,CO,1643067787
234,Faanui,-16.4833,-151.75,80.33,73,100,3.7,PF,1643067789
235,Lamar,33.6668,-95.5836,55.13,54,75,3.09,US,1643067791
236,Tsumeb,-19.2333,17.7167,58.73,35,64,3.7,NA,1643067792
237,Okha,53.5739,142.9478,-7.87,97,45,4.81,RU,1643067794
238,Buluang,13.3068,123.3425,76.73,88,64,2.36,PH,1643067795
239,Māndal,25.45,74.5667,47.93,66,0,1.51,IN,1643067797
240,Kingaroy,-26.5333,151.8333,74.93,64,100,2.06,AU,1643067798
241,Sistranda,63.7256,8.834,35.33,61,100,14.15,NO,1643067800
242,Tiarei,-17.5333,-149.3333,85.73,80,100,4.57,PF,1643067801
243,Tabou,4.423,-7.3528,76.73,85,31,1.55,CI,1643067804
244,Filingué,14.3521,3.3168,64.13,17,0,5.05,NE,1643067805
245,Praia da Vitória,38.7333,-27.0667,55.13,94,20,2.83,PT,1643067807
246,Erzin,36.9559,36.2,31.73,77,53,1.9,TR,1643067808
247,Ōfunato,39.0717,141.7167,22.73,58,71,1.33,JP,1643067810
248,Nanlong,31.3533,106.0631,44.33,90,100,1.9,CN,1643067811
249,Buraidah,26.326,43.975,51.53,32,0,3.58,SA,1643067813
250,Cabedelo,-6.9811,-34.8339,80.33,74,47,4.84,BR,1643067814
251,Berdigestyakh,62.0989,126.6992,-2.47,96,100,2.87,RU,1643067816
252,Bluefield,37.2698,-81.2223,37.13,56,40,3.6,US,1643067817
253,Tual,-5.6667,132.75,82.13,79,95,5.93,ID,1643067819
254,Lompoc,34.6391,-120.4579,69.53,55,0,7.2,US,1643067820
255,Vostok,46.4856,135.8833,-2.47,95,63,0.96,RU,1643067822
256,Hastings,50.8552,0.5729,38.93,81,16,2.78,GB,1643067587
257,Bud,39.447,-86.1758,37.13,89,100,5.39,US,1643067825
258,Zemio,5.0314,25.1361,71.33,34,75,1.68,CF,1643067826
259,Gelemso,8.8167,40.5167,56.93,51,83,2.62,ET,1643067828
260,Caconda,-13.7333,15.0667,58.73,87,94,1.61,AO,1643067829
261,Rawson,-43.3002,-65.1023,76.73,29,28,3.91,AR,1643067831
262,Mount Gambier,-37.8333,140.7667,91.13,21,53,7.2,AU,1643067832
263,Sobolevo,54.4299,31.8996,-0.67,100,96,2.85,RU,1643067834
264,Sarangani,5.4033,125.4636,80.33,76,100,4.09,PH,1643067835
265,Baharly,38.4362,57.4316,38.93,41,0,1.99,TM,1643067837
266,Nelson Bay,-32.7167,152.15,78.53,70,83,0.45,AU,1643067838
267,Gijón,43.5357,-5.6615,46.13,92,0,2.24,ES,1643067840
268,Khvorostyanka,52.6096,48.9597,-2.47,98,88,2.08,RU,1643067841
269,Kita,13.0349,-9.4895,71.33,12,61,3.23,ML,1643067843
270,Linxia Chengguanzhen,35.6003,103.2064,22.73,74,97,1.23,CN,1643067844
271,Lüderitz,-26.6481,15.1594,74.93,63,4,7.08,NA,1643067846
272,Solnechnyy,50.7214,136.6319,-6.07,94,23,0.97,RU,1643067847
273,College,64.8569,-147.8028,40.73,70,75,1.54,US,1643067849
274,Gari,59.4307,62.3497,17.33,94,88,5.22,RU,1643067850
275,Pevek,69.7008,170.3133,-16.87,98,100,2.95,RU,1643067852
276,Bestöbe,52.4994,73.0975,-2.47,95,78,3.31,KZ,1643067854
277,Nantucket,41.2835,-70.0995,29.93,73,20,0.0,US,1643067855
278,Mossamedes,-15.1961,12.1522,74.93,81,44,1.51,AO,1643067857
279,Twin Falls,42.3505,-114.6445,22.73,93,100,3.09,US,1643067858
280,Kovdor,67.5662,30.4758,19.13,84,69,4.23,RU,1643067860
281,Shiraz,29.6036,52.5388,37.13,56,0,0.0,IR,1643067610
282,Arrondissement de Bar-le-Duc,48.75,5.1667,35.33,81,0,1.55,FR,1643067863
283,San Francisco Menéndez,13.8431,-90.0158,92.93,69,7,1.69,SV,1643067864
284,Pyapon,16.2833,95.6833,65.93,78,1,2.13,MM,1643067866
285,Chumikan,54.7183,135.315,-6.07,90,29,8.07,RU,1643067868
286,Hobyo,5.3505,48.5268,74.93,71,65,9.79,SO,1643067869
287,Zapolyarnyy,69.4154,30.8136,20.93,84,33,10.23,RU,1643067870
288,Paso de Carrasco,-34.8603,-56.0522,74.93,88,0,4.63,UY,1643067872
289,Tallinn,59.437,24.7535,35.33,88,40,3.09,EE,1643067738
290,Pachino,36.7186,15.0907,42.53,62,86,8.68,IT,1643067875
291,Kruisfontein,-34.0033,24.7314,69.53,88,82,4.56,ZA,1643067876
292,Geraldton,-28.7667,114.6,69.53,49,1,8.75,AU,1643067878
293,Khatanga,71.9667,102.5,8.33,93,100,8.28,RU,1643067880
294,Ust'-Omchug,61.15,149.6333,-38.47,100,90,0.82,RU,1643067881
295,Jalu,29.0331,21.5482,49.73,67,11,3.39,LY,1643067883
296,Najrān,17.4924,44.1277,55.13,39,0,1.16,SA,1643067884
297,Braniewo,54.3797,19.8196,35.33,93,100,6.86,PL,1643067886
298,Anadyr,64.75,177.4833,-24.07,76,20,3.0,RU,1643067887
299,Rosetta,31.4044,30.4164,53.33,68,11,6.55,EG,1643067889
300,Togur,58.3631,82.8265,-0.67,98,94,1.52,RU,1643067890
301,Lishu,43.3047,124.3278,10.13,72,11,1.44,CN,1643067892
302,Ozinki,51.1786,49.6769,6.53,91,100,3.29,RU,1643067893
303,North Bend,43.4065,-124.2243,58.73,63,0,4.63,US,1643067895
304,Khorixas,-20.3667,14.9667,78.53,42,80,2.32,NA,1643067896
305,Ambositra,-20.5167,47.25,62.33,98,100,3.62,MG,1643067898
306,Antofagasta,-23.65,-70.4,64.13,83,23,2.85,CL,1643067899
307,Athabasca,54.7169,-113.2854,17.33,97,100,1.51,CA,1643067901
308,Kizema,61.113,44.8302,19.13,86,100,5.71,RU,1643067902
309,Dunedin,-45.8742,170.5036,58.73,72,21,1.34,NZ,1643067904
310,Provideniya,64.3833,-173.3,8.33,72,75,4.0,RU,1643067905
311,Hlotse,-28.8718,28.045,58.73,57,48,0.62,LS,1643067907
312,Isangel,-19.55,169.2667,87.53,74,75,4.0,VU,1643067908
313,Pouembout,-21.1333,164.9,83.93,59,13,3.26,NC,1643067910
314,Gouyave,12.1646,-61.7296,76.73,73,20,9.77,GD,1643067912
315,Isla Mujeres,21.2311,-86.731,74.93,71,39,4.35,MX,1643067913
316,Perth,-31.9333,115.8333,65.93,70,75,3.6,AU,1643067797
317,Kununurra,-15.7667,128.7333,78.53,94,100,2.06,AU,1643067916
318,West Bay,19.3667,-81.4167,76.73,78,20,0.45,KY,1643067917
319,Ust-Nera,64.5667,143.2,-29.47,98,100,1.51,RU,1643067920
320,Ţahţā,26.7693,31.5021,46.13,49,51,2.88,EG,1643067922
321,Te Anau,-45.4167,167.7167,64.13,52,73,1.12,NZ,1643067923
322,Harper,4.375,-7.7169,76.73,84,26,1.66,LR,1643067925
323,Qian’an,44.9932,124.0581,1.13,94,99,0.8,CN,1643067926
324,Talnakh,69.4865,88.3972,-6.07,97,98,4.87,RU,1643067928
325,Manta,-0.95,-80.7333,80.33,69,100,5.14,EC,1643067929
326,Saint-Ambroise,48.5501,-71.3324,2.93,71,100,1.03,CA,1643067931
327,Båtsfjord,70.6345,29.7185,26.33,88,99,13.1,NO,1643067932
328,Marrakesh,31.6315,-8.0083,53.33,82,40,3.09,MA,1643067934
329,Artigas,-30.4,-56.4667,76.73,79,55,5.48,UY,1643067935
330,Pavullo nel Frignano,44.3315,10.835,35.33,90,10,0.67,IT,1643067937
331,Sakakah,29.9697,40.2064,42.53,51,46,2.47,SA,1643067938
332,Kaitangata,-46.2817,169.8464,62.33,58,62,2.44,NZ,1643067940
333,Escada,-8.3592,-35.2236,80.33,82,65,1.48,BR,1643067941
334,Angren,41.0167,70.1436,28.13,51,96,1.89,UZ,1643067943
335,Cayambe,0.05,-78.1333,55.13,96,100,1.14,EC,1643067944
336,Yerofey Pavlovich,53.9667,121.9667,-15.07,98,16,1.13,RU,1643067946
337,Zhob,31.3411,69.4481,33.53,51,0,1.12,PK,1643067948
338,Arrondissement de Pontarlier,46.8333,6.25,28.13,86,2,1.75,FR,1643067949
339,Olden,61.8364,6.8064,38.93,98,100,3.04,NO,1643067951
340,Murmashi,68.8154,32.8115,26.33,68,0,3.13,RU,1643067952
341,Lebu,-37.6167,-73.65,58.73,79,1,7.85,CL,1643067954
342,Miracatu,-24.2814,-47.4597,73.13,98,33,1.08,BR,1643067955
343,Kavieng,-2.5744,150.7967,83.93,69,64,2.46,PG,1643067957
344,Mahina,-17.5065,-149.489,85.73,70,75,7.2,PF,1643067959
345,Maragogi,-9.0122,-35.2225,78.53,74,93,3.66,BR,1643067960
346,Brae,60.3964,-1.353,44.33,72,53,4.31,GB,1643067961
347,Gold Coast,-28.0,153.4333,83.93,75,40,0.45,AU,1643067691
348,Taoudenni,22.6783,-3.9836,67.73,18,93,3.79,ML,1643067964
349,Salalah,17.0151,54.0924,69.53,32,0,4.12,OM,1643067966
350,Assiniboia,49.6334,-105.9845,10.13,71,79,2.57,CA,1643067967
351,Salta,-24.7859,-65.4117,73.13,84,75,0.45,AR,1643067969
352,Pangnirtung,66.1451,-65.7125,6.53,92,90,5.14,CA,1643067971
353,Brattvåg,62.6002,6.4434,38.93,65,100,7.72,NO,1643067972
354,Dehlorān,32.6941,47.2679,53.33,37,0,1.64,IR,1643067901
355,Bourail,-21.5667,165.4833,80.33,66,83,2.78,NC,1643067975
356,Mongo,12.1844,18.693,67.73,17,3,3.03,TD,1643067977
357,Onega,63.9061,38.1404,29.93,97,100,5.8,RU,1643067978
358,Hualmay,-11.0964,-77.6139,71.33,79,50,4.85,PE,1643067980
359,Gurupi,-11.7292,-49.0686,74.93,82,35,1.63,BR,1643067981
360,Fortuna,40.5982,-124.1573,58.73,82,45,0.89,US,1643067983
361,Lagoa,39.05,-27.9833,56.93,68,100,4.18,PT,1643067984
362,Kahului,20.8947,-156.47,82.13,61,20,9.26,US,1643067986
363,Humaitá,-7.5061,-63.0208,74.93,89,92,0.82,BR,1643067987
364,Umluj,25.0213,37.2685,60.53,59,2,5.62,SA,1643067989
365,Paamiut,61.994,-49.6678,24.53,84,100,2.34,GL,1643067991
366,Níjar,36.9665,-2.206,51.53,58,75,2.06,ES,1643067992
367,Coahuayana Viejo,18.7333,-103.6833,74.93,70,97,0.42,MX,1643067994
368,Ófehértó,47.9333,22.05,10.13,77,15,1.51,HU,1643067995
369,Rapid Valley,44.0625,-103.1463,31.73,88,100,3.13,US,1643067997
370,Ranong,9.9658,98.6348,73.13,88,63,1.79,TH,1643067998
371,Mwandiga,-4.83,29.6581,69.53,81,100,1.47,TZ,1643068000
372,Wiarton,44.7407,-81.1332,17.33,86,100,5.14,CA,1643068001
373,Kidal,18.4411,1.4078,60.53,18,33,5.2,ML,1643068003
374,Esmeralda,21.8525,-78.1169,73.13,76,0,3.39,CU,1643068004
375,Chapada dos Guimarães,-15.4606,-55.7497,76.73,72,84,2.01,BR,1643068006
376,Heyang,26.1011,107.473,37.13,97,100,1.09,CN,1643068007
377,Saint-Augustin,51.226,-58.6502,-6.07,100,42,2.24,CA,1643068009
378,Savalou,7.9281,1.9756,78.53,19,9,1.24,BJ,1643068010
379,Valley City,46.9233,-98.0032,-0.67,70,0,2.57,US,1643068012
380,Mitú,1.1983,-70.1733,73.13,95,96,0.59,CO,1643068013
381,Corinth,37.9407,22.9573,37.13,87,100,10.32,GR,1643068015
382,Hargeisa,9.56,44.065,53.33,90,70,5.31,SO,1643068016
383,Nakhon Phanom,17.3333,104.4167,71.33,66,24,1.98,TH,1643068018
384,Pozo Colorado,-23.4923,-58.7972,87.53,44,75,2.36,PY,1643068019
385,Broken Hill,-31.95,141.4333,74.93,61,100,3.6,AU,1643068021
386,Arrondissement de Bourg-en-Bresse,46.1667,5.1667,29.93,97,0,0.53,FR,1643068023
387,Belmonte,-15.8631,-38.8828,78.53,82,96,1.47,BR,1643068024
388,Nouadhibou,20.931,-17.0347,67.73,77,100,9.26,MR,1643068026
389,Aketi,2.7388,23.7833,69.53,48,80,0.17,CD,1643068027
390,Hambantota,6.1241,81.1185,69.53,81,90,3.67,LK,1643068029
391,Nemuro,43.3236,145.575,19.13,73,63,4.75,JP,1643068030
392,Jinji,23.2281,110.8261,53.33,79,100,2.04,CN,1643068032
393,Al Bardīyah,31.7561,25.0865,47.93,81,60,8.51,LY,1643068036
394,Coari,-4.085,-63.1414,74.93,97,98,1.42,BR,1643068038
395,Tambura,5.6,27.4667,71.33,30,78,2.1,SS,1643068039
396,Lodja,-3.4833,23.4333,69.53,97,100,0.09,CD,1643068041
397,Saldanha,-33.0117,17.9442,64.13,95,11,8.77,ZA,1643068043
398,Mnogovershinnyy,53.9353,139.9242,-7.87,94,28,1.87,RU,1643068044
399,Khasan,42.4308,130.6434,19.13,63,85,2.06,RU,1643068046
400,Qarchī Gak,37.04,66.7889,29.93,54,0,3.19,AF,1643068047
401,Nador,35.174,-2.9287,56.93,72,75,5.66,MA,1643068049
402,Eldorado,-23.7869,-54.2836,71.33,83,82,1.68,BR,1643068051
403,Salinópolis,-0.6136,-47.3561,76.73,79,98,3.82,BR,1643068052
404,Tsiroanomandidy,-18.7667,46.0333,65.93,93,100,1.04,MG,1643068054
405,Itarema,-2.9248,-39.9167,78.53,76,97,4.68,BR,1643068055
406,Guerrero Negro,27.9769,-114.0611,64.13,50,0,6.88,MX,1643068057
407,Rocha,-34.4833,-54.3333,71.33,97,41,2.6,UY,1643068058
408,Bara,10.3744,10.7288,64.13,20,0,4.15,NG,1643068060
409,Karratha,-20.7377,116.8463,83.93,73,64,4.68,AU,1643068061
410,Iranshahr,27.2025,60.6848,49.73,31,0,0.11,IR,1643068063
411,Porto Walter,-8.2686,-72.7439,73.13,95,97,0.43,BR,1643068064
412,Celestún,20.8667,-90.4,73.13,76,34,4.98,MX,1643068066
413,Fuerte Olimpo,-21.0415,-57.8738,82.13,64,100,5.0,PY,1643068067
414,Sabla,12.7525,4.7077,65.93,14,0,5.59,NG,1643068069
415,Warrington,53.3925,-2.5802,37.13,91,100,0.45,GB,1643068070
416,Samarai,-10.6167,150.6667,85.73,68,99,4.64,PG,1643068072
417,Sonkovo,57.7782,37.1571,10.13,85,9,5.8,RU,1643068073
418,Tartagal,-22.5164,-63.8013,73.13,81,84,1.77,AR,1643068075
419,Nuuk,64.1835,-51.7216,22.73,92,100,6.71,GL,1643067906
420,Launceston,-41.45,147.1667,73.13,64,75,2.57,AU,1643068077
421,Saint-Joseph,-21.3667,55.6167,74.93,67,27,6.86,RE,1643068079
422,Sitka,57.0531,-135.33,38.93,93,90,2.06,US,1643068081
423,Hereford,52.0568,-2.7148,38.93,88,100,1.36,GB,1643068082
424,Diego de Almagro,-26.3667,-70.05,69.53,34,11,2.8,CL,1643068084
425,Foumban,5.7291,10.9001,64.13,33,7,2.16,CM,1643068085
426,Broome,42.2506,-75.833,22.73,80,100,0.45,US,1643068087
427,Tigre,-34.426,-58.5796,82.13,72,0,3.6,AR,1643068088
428,Coquimbo,-29.9533,-71.3436,64.13,82,0,4.12,CL,1643067796
429,Itambacuri,-18.0311,-41.685,67.73,92,77,1.76,BR,1643067803
430,Aden,12.7794,45.0367,74.93,73,100,4.62,YE,1643068067
431,Bulgan,48.8125,103.5347,-6.07,94,60,1.64,MN,1643068094
432,Ust-Maya,60.4167,134.5333,-7.87,99,100,0.42,RU,1643068095
433,Leningradskiy,69.3833,178.4167,-13.27,90,100,7.15,RU,1643068097
434,Taunggyi,20.7833,97.0333,47.93,80,4,1.18,MM,1643068098
435,Sumbawanga,-7.9667,31.6167,56.93,98,100,1.03,TZ,1643068100
436,Morros,-9.4467,-46.3003,71.33,86,33,1.79,BR,1643068102
437,Vidyayevo,69.3191,32.8049,26.33,78,17,11.0,RU,1643068103
438,Lichinga,-13.3128,35.2406,62.33,100,90,7.72,MZ,1643068105
439,Guri-si,37.5986,127.1394,37.13,80,75,3.09,KR,1643068106
440,Rio Grande,-32.035,-52.0986,71.33,95,81,1.67,BR,1643068108
441,Thessalon,46.2501,-83.5666,11.93,91,61,4.24,CA,1643068109
442,Isaka,-3.9,32.9333,64.13,91,100,0.97,TZ,1643068111
443,Kungurtug,50.5994,97.5228,-13.27,99,100,0.37,RU,1643068112
444,Mehamn,71.0357,27.8492,28.13,82,100,15.25,NO,1643068114
445,West Bend,43.4253,-88.1834,13.73,71,0,2.24,US,1643068115
446,Andalan,5.9594,121.3903,78.53,78,98,5.07,PH,1643068117
447,Meulaboh,4.1363,96.1285,73.13,90,77,1.8,ID,1643068118
448,Narsaq,60.9167,-46.05,28.13,90,100,2.41,GL,1643068120
449,Constantine,36.365,6.6147,37.13,81,0,1.03,DZ,1643068122
450,Ol'ga,43.7444,135.2892,15.53,56,75,1.8,RU,1643068123
451,Kaberamaido,1.7389,33.1594,73.13,40,98,0.28,UG,1643068125
452,Provincia di Pescara,42.3333,13.95,35.33,81,42,1.62,IT,1643068127
453,Pemba,-12.974,40.5178,76.73,83,100,8.86,MZ,1643068128
454,Pochutla,15.7432,-96.4661,80.33,61,0,3.16,MX,1643068130
455,Haines Junction,60.7522,-137.5108,38.93,60,100,2.06,CA,1643068131
456,Alghero,40.5589,8.3181,42.53,100,0,2.57,IT,1643068133
457,Znamenskoye,57.1281,73.8282,8.33,91,100,2.63,RU,1643068135
458,El Seibo,18.7641,-69.0375,74.93,80,26,2.19,DO,1643068136
459,Nuevitas,21.5453,-77.2644,73.13,74,0,4.13,CU,1643068138
460,Sørland,67.667,12.6934,33.53,61,100,12.68,NO,1643068139
461,Kütahya,39.4242,29.9833,8.33,97,93,1.27,TR,1643068141
462,San Rafael,-34.6177,-68.3301,80.33,51,45,2.77,AR,1643068142
463,Kimbe,-5.5502,150.1429,85.73,67,43,1.41,PG,1643068144
464,São José da Coroa Grande,-8.8978,-35.1478,78.53,74,93,3.73,BR,1643068145
465,Kathu,7.9178,98.3332,80.33,82,99,4.02,TH,1643068147
466,Podor,16.6527,-14.9587,80.33,19,0,2.06,MR,1643068148
467,Quirinópolis,-18.4483,-50.4517,74.93,78,85,1.53,BR,1643068150
468,Chake Chake,-5.2459,39.7666,78.53,72,91,6.07,TZ,1643068152
469,Tuatapere,-46.1333,167.6833,58.73,60,65,2.71,NZ,1643068153
470,Katsuura,35.1333,140.3,42.53,60,93,4.22,JP,1643068155
471,Robertsport,6.7533,-11.3686,78.53,80,77,2.72,LR,1643068156
472,Tonj,7.2737,28.6822,74.93,26,63,3.0,SS,1643068158
473,Bima,-8.4667,118.7167,80.33,82,18,1.22,ID,1643068159
474,Cheremnoye,53.1697,83.2133,-6.07,100,71,1.33,RU,1643068161
475,Mach,29.8637,67.3298,42.53,33,0,4.13,PK,1643068162
476,Kenora,49.8167,-94.4337,-9.67,70,0,2.57,CA,1643067894
477,Coyhaique,-45.5752,-72.0662,60.53,55,75,3.09,CL,1643068165
478,Yulara,-25.2406,130.9889,82.13,42,1,5.66,AU,1643068167
479,Cardston,49.2,-113.3019,35.33,80,99,4.63,CA,1643068168
480,Necochea,-38.5473,-58.7368,65.93,79,0,3.56,AR,1643068170
481,Maceió,-9.6658,-35.7353,78.53,83,20,3.09,BR,1643068171
482,Mujiayingzi,42.1167,118.7833,13.73,75,5,2.74,CN,1643068173
483,Coos Bay,43.3665,-124.2179,58.73,63,0,4.63,US,1643067940
484,Kieta,-6.2167,155.6333,85.73,70,100,2.74,PG,1643068175
485,Marsá Maţrūḩ,31.3525,27.2453,46.13,66,0,5.14,EG,1643068177
486,Abu Samrah,35.3029,37.1841,35.33,79,14,1.63,SY,1643068178
487,Phalaborwa,-23.943,31.1411,69.53,82,100,3.11,ZA,1643068180
488,Kalangala,-0.3089,32.225,67.73,71,96,2.78,UG,1643068181
489,Nome,64.5011,-165.4064,19.13,79,100,11.32,US,1643068183
490,Quesnel,52.9999,-122.5029,24.53,100,0,1.54,CA,1643068185
491,Aktau,43.65,51.2,31.73,71,24,9.77,KZ,1643068186
492,Ouadda,8.0777,22.4007,64.13,29,12,1.6,CF,1643068188
493,Dalby,-27.1833,151.2667,82.13,51,94,0.89,AU,1643068189
494,Kumluca,36.3703,30.2869,40.73,86,100,5.65,TR,1643068191
495,Payakumbuh,-0.2202,100.6308,69.53,91,100,0.66,ID,1643068192
496,Sayville,40.7359,-73.0821,31.73,78,75,2.06,US,1643068194
497,Raudeberg,61.9875,5.1352,38.93,76,100,0.89,NO,1643068195
498,Brazzaville,-4.2658,15.2832,71.33,94,75,3.09,CG,1643068197
499,Grafton,42.207,-71.6856,28.13,66,0,2.57,US,1643068009
500,Praia,14.9215,-23.5087,74.93,60,88,4.63,CV,1643068200
501,Dali,25.7,100.1833,42.53,92,99,1.28,CN,1643068201
502,Guna,24.65,77.3167,47.93,64,0,1.1,IN,1643068203
503,Kaeo,-35.1,173.7833,71.33,97,100,4.0,NZ,1643068204
504,Kargasok,59.0556,80.8572,-2.47,99,90,1.24,RU,1643068206
505,Fond du Lac,43.775,-88.4388,15.53,87,94,3.99,US,1643068207
506,Aras,42.5617,-2.356,33.53,93,0,0.0,ES,1643068209
507,Verkhnyaya Inta,65.9811,60.3094,15.53,92,94,5.17,RU,1643068211
508,Beloha,-25.1667,45.05,69.53,74,0,6.78,MG,1643068212
509,Starkville,33.4504,-88.8184,55.13,56,98,2.58,US,1643068202
510,Mumford,5.2618,-0.759,78.53,84,4,1.91,GH,1643068215
511,Touros,-5.1989,-35.4608,80.33,79,80,4.9,BR,1643068217
512,Namatanai,-3.6667,152.4333,83.93,70,74,1.73,PG,1643068218
513,Maracaçumé,-2.0428,-45.9592,73.13,96,95,1.61,BR,1643068220
514,Moanda,-1.5575,13.2178,71.33,89,73,1.29,GA,1643068221
515,Sinnamary,5.3833,-52.95,74.93,85,81,4.43,GF,1643068223
516,Okhotsk,59.3833,143.3,-20.47,86,6,3.77,RU,1643068224
517,Deer Lake,49.1667,-57.4316,26.33,93,100,0.0,CA,1643068226
518,Porto-Novo,6.4965,2.6036,80.33,79,5,1.34,BJ,1643068227
519,Taltal,-25.4,-70.4833,65.93,82,24,2.45,CL,1643068229
520,Opatija,45.3392,14.3083,35.33,59,19,2.59,HR,1643068230
521,Ganzhou,28.8184,115.4327,44.33,89,100,1.48,CN,1643068232
522,Statesboro,32.4488,-81.7832,51.53,65,0,0.0,US,1643068233
523,Katherine,-14.4667,132.2667,78.53,83,75,4.12,AU,1643068235
524,Mombetsu,44.3525,143.3525,19.13,82,23,1.96,JP,1643068236
525,Galle,6.0367,80.217,73.13,80,51,2.7,LK,1643068238
526,Mwinilunga,-11.7358,24.4293,58.73,90,100,1.32,ZM,1643068240
527,Havøysund,70.9963,24.6622,28.13,73,100,17.89,NO,1643068241
528,Chifeng,42.2683,118.9636,15.53,76,1,2.7,CN,1643068243
529,Esim,4.8699,-2.2405,78.53,85,10,2.15,GH,1643068244
530,Anse-Bertrand,16.4721,-61.5078,73.13,100,11,6.18,GP,1643068246
531,Manoel Urbano,-8.8389,-69.2597,74.93,92,99,1.09,BR,1643068247
532,Koundara,12.4833,-13.3,78.53,10,100,2.59,GN,1643068249
533,Tvøroyri,61.5556,-6.8111,40.73,74,98,8.34,FO,1643068251
534,Krasnosel'kup,65.7,82.4667,-11.47,99,90,4.16,RU,1643068252
535,Geelong,-38.1471,144.3607,87.53,67,96,1.79,AU,1643068254
536,Margate,51.3813,1.3862,40.73,78,66,0.45,GB,1643068255
537,Awjilah,29.1081,21.2869,49.73,67,20,3.19,LY,1643068257
538,Kapoeta,4.7717,33.5903,80.33,31,78,1.15,SS,1643068258
539,Beyneu,45.3167,55.2,26.33,87,62,6.42,KZ,1643068260
540,Anna Paulowna,52.862,4.834,40.73,83,100,4.02,NL,1643068261
541,Fernley,39.608,-119.2518,55.13,35,99,0.89,US,1643068259
542,Guadalajara,20.6667,-103.3333,65.93,52,95,2.24,MX,1643068044
543,Pueblo,38.2545,-104.6091,51.53,22,0,3.6,US,1643068042
544,Pinsk,52.1229,26.0951,17.33,92,55,2.78,BY,1643068267
545,Goderich,43.7501,-81.7165,19.13,93,100,3.09,CA,1643068141
